$GPGGA,113711.00,3816.41135546,N,11652.23382605,E,1,25,0.529,9.723,M,-9.385,M,0.000,0*69
$GPGGA,113712.00,3816.41137162,N,11652.23383030,E,1,25,0.529,9.692,M,-9.385,M,0.000,0*60
$GPGGA,113713.00,3816.41138856,N,11652.23381258,E,1,25,0.529,9.641,M,-9.385,M,0.000,0*60
$GPGGA,113714.00,3816.41139921,N,11652.23382951,E,1,25,0.529,9.586,M,-9.385,M,0.000,0*6E
$GPGGA,113715.00,3816.41141173,N,11652.23382654,E,1,25,0.529,9.578,M,-9.385,M,0.000,0*64
$GPGGA,113716.00,3816.41141369,N,11652.23383105,E,1,25,0.529,9.588,M,-9.385,M,0.000,0*63
$GPGGA,113717.00,3816.41144981,N,11652.23380535,E,1,25,0.529,9.535,M,-9.385,M,0.000,0*69
$GPGGA,113718.00,3816.41149070,N,11652.23377213,E,1,25,0.529,9.478,M,-9.385,M,0.000,0*6F
$GPGGA,113719.00,3816.41152697,N,11652.23375320,E,1,25,0.529,9.413,M,-9.385,M,0.000,0*65
$GPGGA,113720.00,3816.41158897,N,11652.23372261,E,1,25,0.529,9.358,M,-9.385,M,0.000,0*60
$GPGGA,113721.00,3816.41159513,N,11652.23373103,E,1,25,0.529,9.306,M,-9.385,M,0.000,0*6C
$GPGGA,113722.00,3816.41160485,N,11652.23373622,E,1,25,0.529,9.260,M,-9.385,M,0.000,0*6E
$GPGGA,113723.00,3816.41158593,N,11652.23372640,E,1,25,0.529,9.247,M,-9.385,M,0.000,0*62
$GPGGA,113724.00,3816.41156804,N,11652.23371636,E,1,25,0.529,9.212,M,-9.385,M,0.000,0*6A
$GPGGA,113725.00,3816.41156566,N,11652.23371036,E,1,25,0.529,9.178,M,-9.385,M,0.000,0*6B
$GPGGA,113726.00,3816.41153084,N,11652.23368798,E,1,25,0.529,9.143,M,-9.385,M,0.000,0*67
$GPGGA,113727.00,3816.41151340,N,11652.23367898,E,1,25,0.529,9.098,M,-9.385,M,0.000,0*68
$GPGGA,113728.00,3816.41150041,N,11652.23368929,E,1,25,0.529,9.082,M,-9.385,M,0.000,0*6B
$GPGGA,113729.00,3816.41150214,N,11652.23369402,E,1,25,0.529,9.111,M,-9.385,M,0.000,0*66
$GPGGA,113730.00,3816.41148042,N,11652.23370073,E,1,25,0.529,9.072,M,-9.385,M,0.000,0*68
$GPGGA,113731.00,3816.41148576,N,11652.23373264,E,1,25,0.529,9.072,M,-9.385,M,0.000,0*6C
$GPGGA,113732.00,3816.41147346,N,11652.23375540,E,1,25,0.529,9.076,M,-9.385,M,0.000,0*66
$GPGGA,113733.00,3816.41147895,N,11652.23374525,E,1,25,0.529,9.100,M,-9.385,M,0.000,0*60
$GPGGA,113734.00,3816.41145623,N,11652.23375842,E,1,25,0.529,9.123,M,-9.385,M,0.000,0*6A
$GPGGA,113735.00,3816.41145148,N,11652.23374557,E,1,25,0.529,9.146,M,-9.385,M,0.000,0*6A
$GPGGA,113736.00,3816.41145065,N,11652.23375861,E,1,25,0.529,9.114,M,-9.385,M,0.000,0*69
$GPGGA,113737.00,3816.41148035,N,11652.23373635,E,1,25,0.529,9.093,M,-9.385,M,0.000,0*67
$GPGGA,113738.00,3816.41147226,N,11652.23372255,E,1,25,0.529,9.068,M,-9.385,M,0.000,0*60
$GPGGA,113739.00,3816.41145436,N,11652.23371845,E,1,25,0.529,8.982,M,-9.385,M,0.000,0*60
$GPGGA,113740.00,3816.41147026,N,11652.23373399,E,1,25,0.529,9.007,M,-9.385,M,0.000,0*64
$GPGGA,113741.00,3816.41147830,N,11652.23374836,E,1,25,0.529,8.996,M,-9.385,M,0.000,0*63
$GPGGA,113742.00,3816.41149436,N,11652.23378240,E,1,25,0.529,8.969,M,-9.385,M,0.000,0*63
$GPGGA,113743.00,3816.41148723,N,11652.23380042,E,1,25,0.529,8.899,M,-9.385,M,0.000,0*6D
$GPGGA,113744.00,3816.41148803,N,11652.23380237,E,1,25,0.529,8.882,M,-9.385,M,0.000,0*6D
$GPGGA,113745.00,3816.41144757,N,11652.23380908,E,1,25,0.529,8.869,M,-9.385,M,0.000,0*6C
$GPGGA,113746.00,3816.41146254,N,11652.23378265,E,1,25,0.529,8.806,M,-9.385,M,0.000,0*65
$GPGGA,113747.00,3816.41148250,N,11652.23380626,E,1,25,0.529,8.798,M,-9.385,M,0.000,0*62
$GPGGA,113748.00,3816.41149687,N,11652.23378315,E,1,25,0.529,8.777,M,-9.385,M,0.000,0*61
$GPGGA,113749.00,3816.41148628,N,11652.23381165,E,1,25,0.529,8.746,M,-9.385,M,0.000,0*65
$GPGGA,113750.00,3816.41150437,N,11652.23383035,E,1,25,0.529,8.693,M,-9.385,M,0.000,0*67
$GPGGA,113751.00,3816.41151268,N,11652.23383016,E,1,25,0.529,8.718,M,-9.385,M,0.000,0*68
$GPGGA,113752.00,3816.41149201,N,11652.23383342,E,1,25,0.529,8.751,M,-9.385,M,0.000,0*62
$GPGGA,113753.00,3816.41147754,N,11652.23383350,E,1,25,0.529,8.764,M,-9.385,M,0.000,0*6D
$GPGGA,113754.00,3816.41148587,N,11652.23383242,E,1,25,0.529,8.744,M,-9.385,M,0.000,0*69
$GPGGA,113755.00,3816.41147101,N,11652.23382292,E,1,25,0.529,8.766,M,-9.385,M,0.000,0*61
$GPGGA,113756.00,3816.41146921,N,11652.23382403,E,1,25,0.529,8.806,M,-9.385,M,0.000,0*6E
$GPGGA,113757.00,3816.41147010,N,11652.23382243,E,1,25,0.529,8.790,M,-9.385,M,0.000,0*67
$GPGGA,113758.00,3816.41144545,N,11652.23383023,E,1,25,0.529,8.834,M,-9.385,M,0.000,0*6A
$GPGGA,113759.00,3816.41142528,N,11652.23384079,E,1,25,0.529,8.870,M,-9.385,M,0.000,0*6E
$GPGGA,113800.00,3816.41141753,N,11652.23387182,E,1,25,0.529,8.892,M,-9.385,M,0.000,0*6A
$GPGGA,113801.00,3816.41140046,N,11652.23385739,E,1,25,0.529,8.934,M,-9.385,M,0.000,0*60
$GPGGA,113802.00,3816.41140430,N,11652.23386967,E,1,25,0.529,8.973,M,-9.385,M,0.000,0*63
$GPGGA,113803.00,3816.41139884,N,11652.23386996,E,1,25,0.529,9.004,M,-9.385,M,0.000,0*69
$GPGGA,113804.00,3816.41140693,N,11652.23389985,E,1,25,0.529,9.032,M,-9.385,M,0.000,0*60
$GPGGA,113805.00,3816.41140965,N,11652.23392533,E,1,25,0.529,9.072,M,-9.385,M,0.000,0*68
$GPGGA,113806.00,3816.41142104,N,11652.23391121,E,1,25,0.529,9.115,M,-9.385,M,0.000,0*62
$GPGGA,113807.00,3816.41144529,N,11652.23389207,E,1,25,0.529,9.084,M,-9.385,M,0.000,0*69
$GPGGA,113808.00,3816.41144974,N,11652.23386421,E,1,25,0.529,9.078,M,-9.385,M,0.000,0*6C
$GPGGA,113809.00,3816.41146443,N,11652.23386205,E,1,25,0.529,9.092,M,-9.385,M,0.000,0*62
$GPGGA,113810.00,3816.41145180,N,11652.23387974,E,1,25,0.529,9.087,M,-9.385,M,0.000,0*6B
$GPGGA,113811.00,3816.41147561,N,11652.23387598,E,1,25,0.529,9.059,M,-9.385,M,0.000,0*6E
$GPGGA,113812.00,3816.41148205,N,11652.23387890,E,1,25,0.529,9.089,M,-9.385,M,0.000,0*6F
$GPGGA,113813.00,3816.41148653,N,11652.23388909,E,1,25,0.529,9.081,M,-9.385,M,0.000,0*6F
$GPGGA,113814.00,3816.41149237,N,11652.23387574,E,1,25,0.529,9.080,M,-9.385,M,0.000,0*67
$GPGGA,113815.00,3816.41150832,N,11652.23388161,E,1,25,0.529,9.109,M,-9.385,M,0.000,0*6E
$GPGGA,113816.00,3816.41153566,N,11652.23387901,E,1,25,0.529,9.090,M,-9.385,M,0.000,0*62
$GPGGA,113817.00,3816.41156814,N,11652.23386616,E,1,25,0.528,9.082,M,-9.385,M,0.000,0*64
$GPGGA,113818.00,3816.41155390,N,11652.23385937,E,1,25,0.528,9.077,M,-9.385,M,0.000,0*6A
$GPGGA,113819.00,3816.41156512,N,11652.23384154,E,1,25,0.528,9.062,M,-9.385,M,0.000,0*6C
$GPGGA,113820.00,3816.41156724,N,11652.23383982,E,1,25,0.528,9.044,M,-9.385,M,0.000,0*61
$GPGGA,113821.00,3816.41154555,N,11652.23379004,E,1,25,0.528,8.973,M,-9.385,M,0.000,0*68
$GPGGA,113822.00,3816.41152368,N,11652.23379300,E,1,25,0.528,8.919,M,-9.385,M,0.000,0*6E
$GPGGA,113823.00,3816.41154126,N,11652.23380507,E,1,25,0.528,8.941,M,-9.385,M,0.000,0*6B
$GPGGA,113824.00,3816.41154877,N,11652.23381679,E,1,25,0.528,8.915,M,-9.385,M,0.000,0*6B
$GPGGA,113825.00,3816.41156093,N,11652.23382172,E,1,25,0.528,8.964,M,-9.385,M,0.000,0*63
$GPGGA,113826.00,3816.41156917,N,11652.23381247,E,1,25,0.528,8.971,M,-9.385,M,0.000,0*67
$GPGGA,113827.00,3816.41157837,N,11652.23380361,E,1,25,0.528,9.024,M,-9.385,M,0.000,0*68
$GPGGA,113828.00,3816.41159349,N,11652.23379084,E,1,25,0.528,9.035,M,-9.385,M,0.000,0*65
$GPGGA,113829.00,3816.41158615,N,11652.23380043,E,1,25,0.528,9.037,M,-9.385,M,0.000,0*66
$GPGGA,113830.00,3816.41157725,N,11652.23381920,E,1,25,0.528,9.065,M,-9.385,M,0.000,0*69
$GPGGA,113831.00,3816.41161042,N,11652.23383135,E,1,26,0.516,9.094,M,-9.385,M,0.000,0*65
$GPGGA,113832.00,3816.41161597,N,11652.23378882,E,1,26,0.516,9.121,M,-9.385,M,0.000,0*65
$GPGGA,113833.00,3816.41161841,N,11652.23377466,E,1,26,0.516,9.151,M,-9.385,M,0.000,0*6C
$GPGGA,113834.00,3816.41158178,N,11652.23377374,E,1,26,0.516,9.173,M,-9.385,M,0.000,0*66
$GPGGA,113835.00,3816.41157573,N,11652.23379320,E,1,26,0.516,9.155,M,-9.385,M,0.000,0*6C
$GPGGA,113836.00,3816.41161868,N,11652.23378539,E,1,26,0.516,9.136,M,-9.385,M,0.000,0*67
$GPGGA,113837.00,3816.41162039,N,11652.23379170,E,1,26,0.516,9.112,M,-9.385,M,0.000,0*67
$GPGGA,113838.00,3816.41163123,N,11652.23376784,E,1,26,0.516,9.145,M,-9.385,M,0.000,0*63
$GPGGA,113839.00,3816.41162529,N,11652.23376494,E,1,26,0.516,9.146,M,-9.385,M,0.000,0*6C
$GPGGA,113840.00,3816.41160551,N,11652.23375751,E,1,26,0.516,9.113,M,-9.385,M,0.000,0*66
$GPGGA,113841.00,3816.41161018,N,11652.23373127,E,1,26,0.516,9.101,M,-9.385,M,0.000,0*6C
$GPGGA,113842.00,3816.41158389,N,11652.23370507,E,1,26,0.516,9.138,M,-9.385,M,0.000,0*61
$GPGGA,113843.00,3816.41155437,N,11652.23369740,E,1,26,0.516,9.144,M,-9.385,M,0.000,0*6D
$GPGGA,113844.00,3816.41156443,N,11652.23369464,E,1,26,0.516,9.165,M,-9.385,M,0.000,0*6C
$GPGGA,113845.00,3816.41159206,N,11652.23367899,E,1,26,0.516,9.165,M,-9.385,M,0.000,0*65
$GPGGA,113846.00,3816.41157495,N,11652.23365455,E,1,26,0.516,9.203,M,-9.385,M,0.000,0*69
$GPGGA,113847.00,3816.41155532,N,11652.23366222,E,1,26,0.516,9.250,M,-9.385,M,0.000,0*65
$GPGGA,113848.00,3816.41153669,N,11652.23367451,E,1,26,0.516,9.282,M,-9.385,M,0.000,0*6D
$GPGGA,113849.00,3816.41152629,N,11652.23366403,E,1,26,0.516,9.329,M,-9.385,M,0.000,0*6F
$GPGGA,113850.00,3816.41152529,N,11652.23365774,E,1,26,0.516,9.341,M,-9.385,M,0.000,0*6A
$GPGGA,113851.00,3816.41150976,N,11652.23368270,E,1,26,0.516,9.378,M,-9.385,M,0.000,0*69
$GPGGA,113852.00,3816.41149143,N,11652.23367376,E,1,26,0.516,9.379,M,-9.385,M,0.000,0*65
$GPGGA,113853.00,3816.41147493,N,11652.23371531,E,1,26,0.516,9.379,M,-9.385,M,0.000,0*60
$GPGGA,113854.00,3816.41146361,N,11652.23371994,E,1,26,0.516,9.353,M,-9.385,M,0.000,0*67
$GPGGA,113855.00,3816.41147011,N,11652.23374020,E,1,26,0.516,9.321,M,-9.385,M,0.000,0*65
$GPGGA,113856.00,3816.41147212,N,11652.23375238,E,1,26,0.516,9.343,M,-9.385,M,0.000,0*69
$GPGGA,113857.00,3816.41146766,N,11652.23377602,E,1,26,0.516,9.423,M,-9.385,M,0.000,0*61
$GPGGA,113858.00,3816.41147618,N,11652.23377812,E,1,26,0.516,9.481,M,-9.385,M,0.000,0*60
$GPGGA,113859.00,3816.41147993,N,11652.23377196,E,1,26,0.516,9.531,M,-9.385,M,0.000,0*62
$GPGGA,113900.00,3816.41150536,N,11652.23378171,E,1,26,0.516,9.501,M,-9.385,M,0.000,0*6F
$GPGGA,113901.00,3816.41151254,N,11652.23380874,E,1,26,0.516,9.476,M,-9.385,M,0.000,0*66
$GPGGA,113902.00,3816.41152264,N,11652.23380485,E,1,26,0.516,9.515,M,-9.385,M,0.000,0*63
$GPGGA,113903.00,3816.41153031,N,11652.23380373,E,1,26,0.516,9.482,M,-9.385,M,0.000,0*60
$GPGGA,113904.00,3816.41154578,N,11652.23378890,E,1,26,0.516,9.445,M,-9.385,M,0.000,0*62
$GPGGA,113905.00,3816.41157120,N,11652.23378348,E,1,26,0.516,9.426,M,-9.385,M,0.000,0*62
$GPGGA,113906.00,3816.41160354,N,11652.23379805,E,1,26,0.516,9.400,M,-9.385,M,0.000,0*63
$GPGGA,113907.00,3816.41160009,N,11652.23377961,E,1,26,0.516,9.394,M,-9.385,M,0.000,0*6E
$GPGGA,113908.00,3816.41160213,N,11652.23378505,E,1,26,0.516,9.388,M,-9.385,M,0.000,0*64
$GPGGA,113909.00,3816.41157706,N,11652.23377646,E,1,26,0.516,9.381,M,-9.385,M,0.000,0*62
$GPGGA,113910.00,3816.41157263,N,11652.23376927,E,1,26,0.516,9.417,M,-9.385,M,0.000,0*6D
$GPGGA,113911.00,3816.41157837,N,11652.23376085,E,1,26,0.516,9.430,M,-9.385,M,0.000,0*63
$GPGGA,113912.00,3816.41159123,N,11652.23377557,E,1,26,0.516,9.435,M,-9.385,M,0.000,0*6C
$GPGGA,113913.00,3816.41158491,N,11652.23376201,E,1,26,0.516,9.411,M,-9.385,M,0.000,0*63
$GPGGA,113914.00,3816.41161140,N,11652.23375117,E,1,26,0.516,9.358,M,-9.385,M,0.000,0*6A
$GPGGA,113915.00,3816.41159469,N,11652.23374586,E,1,26,0.516,9.412,M,-9.385,M,0.000,0*6A
$GPGGA,113916.00,3816.41157790,N,11652.23374012,E,1,26,0.516,9.463,M,-9.385,M,0.000,0*6C
$GPGGA,113917.00,3816.41155490,N,11652.23373983,E,1,26,0.516,9.515,M,-9.385,M,0.000,0*6A
$GPGGA,113918.00,3816.41152746,N,11652.23373128,E,1,26,0.516,9.525,M,-9.385,M,0.000,0*60
$GPGGA,113919.00,3816.41151366,N,11652.23371177,E,1,26,0.516,9.555,M,-9.385,M,0.000,0*6B
$GPGGA,113920.00,3816.41148927,N,11652.23370410,E,1,26,0.516,9.561,M,-9.385,M,0.000,0*64
$GPGGA,113921.00,3816.41147932,N,11652.23371496,E,1,26,0.516,9.532,M,-9.385,M,0.000,0*67
$GPGGA,113922.00,3816.41147851,N,11652.23370128,E,1,26,0.516,9.491,M,-9.385,M,0.000,0*69
$GPGGA,113923.00,3816.41146913,N,11652.23370704,E,1,26,0.516,9.476,M,-9.385,M,0.000,0*6F
$GPGGA,113924.00,3816.41147553,N,11652.23369698,E,1,26,0.516,9.480,M,-9.385,M,0.000,0*64
$GPGGA,113925.00,3816.41147261,N,11652.23369344,E,1,26,0.516,9.448,M,-9.385,M,0.000,0*63
$GPGGA,113926.00,3816.41147908,N,11652.23370559,E,1,26,0.516,9.422,M,-9.385,M,0.000,0*6A
$GPGGA,113927.00,3816.41148870,N,11652.23369425,E,1,26,0.516,9.326,M,-9.385,M,0.000,0*6B
$GPGGA,113928.00,3816.41149047,N,11652.23368927,E,1,26,0.516,9.273,M,-9.385,M,0.000,0*66
$GPGGA,113929.00,3816.41150723,N,11652.23369463,E,1,26,0.516,9.269,M,-9.385,M,0.000,0*6D
$GPGGA,113930.00,3816.41154087,N,11652.23369505,E,1,26,0.516,9.235,M,-9.385,M,0.000,0*60
$GPGGA,113931.00,3816.41155626,N,11652.23368622,E,1,26,0.516,9.186,M,-9.385,M,0.000,0*61
$GPGGA,113932.00,3816.41156255,N,11652.23369780,E,1,26,0.516,9.124,M,-9.385,M,0.000,0*61
$GPGGA,113933.00,3816.41156008,N,11652.23369251,E,1,26,0.516,9.079,M,-9.385,M,0.000,0*6A
$GPGGA,113934.00,3816.41156300,N,11652.23369404,E,1,26,0.516,9.032,M,-9.385,M,0.000,0*6F
$GPGGA,113935.00,3816.41155333,N,11652.23369402,E,1,26,0.516,9.002,M,-9.385,M,0.000,0*68
$GPGGA,113936.00,3816.41158263,N,11652.23367538,E,1,26,0.516,8.996,M,-9.385,M,0.000,0*61
$GPGGA,113937.00,3816.41160180,N,11652.23365595,E,1,26,0.516,8.945,M,-9.385,M,0.000,0*6E
$GPGGA,113938.00,3816.41160329,N,11652.23365879,E,1,26,0.516,8.878,M,-9.385,M,0.000,0*60
$GPGGA,113939.00,3816.41158389,N,11652.23365857,E,1,26,0.516,8.902,M,-9.385,M,0.000,0*60
$GPGGA,113940.00,3816.41155057,N,11652.23367100,E,1,26,0.516,8.973,M,-9.385,M,0.000,0*6C
$GPGGA,113941.00,3816.41153771,N,11652.23367773,E,1,26,0.516,9.029,M,-9.385,M,0.000,0*6D
$GPGGA,113942.00,3816.41152517,N,11652.23370296,E,1,26,0.516,9.081,M,-9.385,M,0.000,0*67
$GPGGA,113943.00,3816.41151347,N,11652.23372644,E,1,26,0.516,9.128,M,-9.385,M,0.000,0*6D
$GPGGA,113944.00,3816.41149312,N,11652.23374492,E,1,26,0.516,9.216,M,-9.385,M,0.000,0*62
$GPGGA,113945.00,3816.41148454,N,11652.23372618,E,1,26,0.516,9.251,M,-9.385,M,0.000,0*62
$GPGGA,113946.00,3816.41145272,N,11652.23375807,E,1,26,0.516,9.389,M,-9.385,M,0.000,0*6D
$GPGGA,113947.00,3816.41141913,N,11652.23377374,E,1,26,0.516,9.505,M,-9.385,M,0.000,0*6B
$GPGGA,113948.00,3816.41140179,N,11652.23377620,E,1,26,0.516,9.564,M,-9.385,M,0.000,0*62
$GPGGA,113949.00,3816.41136348,N,11652.23375968,E,1,26,0.516,9.560,M,-9.385,M,0.000,0*67
$GPGGA,113950.00,3816.41134646,N,11652.23374380,E,1,26,0.516,9.549,M,-9.385,M,0.000,0*60
$GPGGA,113951.00,3816.41133075,N,11652.23373418,E,1,26,0.516,9.541,M,-9.385,M,0.000,0*69
$GPGGA,113952.00,3816.41133595,N,11652.23370871,E,1,26,0.516,9.515,M,-9.385,M,0.000,0*60
$GPGGA,113953.00,3816.41133285,N,11652.23371494,E,1,26,0.516,9.481,M,-9.385,M,0.000,0*6D
$GPGGA,113954.00,3816.41133567,N,11652.23369499,E,1,26,0.516,9.511,M,-9.385,M,0.000,0*6D
$GPGGA,113955.00,3816.41134447,N,11652.23369161,E,1,26,0.516,9.494,M,-9.385,M,0.000,0*66
$GPGGA,113956.00,3816.41131977,N,11652.23369475,E,1,26,0.516,9.419,M,-9.385,M,0.000,0*6B
$GPGGA,113957.00,3816.41130482,N,11652.23369739,E,1,26,0.516,9.375,M,-9.385,M,0.000,0*6A
$GPGGA,113958.00,3816.41131172,N,11652.23370982,E,1,26,0.516,9.369,M,-9.385,M,0.000,0*65
$GPGGA,113959.00,3816.41133104,N,11652.23371062,E,1,26,0.516,9.354,M,-9.385,M,0.000,0*6F
$GPGGA,114000.00,3816.41135090,N,11652.23370899,E,1,26,0.516,9.344,M,-9.385,M,0.000,0*6B
$GPGGA,114001.00,3816.41136714,N,11652.23371532,E,1,26,0.516,9.350,M,-9.385,M,0.000,0*6A
$GPGGA,114002.00,3816.41138905,N,11652.23370952,E,1,26,0.516,9.326,M,-9.385,M,0.000,0*63
$GPGGA,114003.00,3816.41137703,N,11652.23371094,E,1,26,0.516,9.346,M,-9.385,M,0.000,0*61
$GPGGA,114004.00,3816.41135331,N,11652.23370804,E,1,26,0.516,9.349,M,-9.385,M,0.000,0*6E
$GPGGA,114005.00,3816.41136104,N,11652.23368475,E,1,26,0.516,9.327,M,-9.385,M,0.000,0*63
$GPGGA,114006.00,3816.41133951,N,11652.23368535,E,1,26,0.516,9.290,M,-9.385,M,0.000,0*65
$GPGGA,114007.00,3816.41135019,N,11652.23370594,E,1,26,0.516,9.291,M,-9.385,M,0.000,0*64
$GPGGA,114008.00,3816.41132226,N,11652.23369821,E,1,26,0.516,9.253,M,-9.385,M,0.000,0*67
$GPGGA,114009.00,3816.41134236,N,11652.23369701,E,1,26,0.516,9.187,M,-9.385,M,0.000,0*66
$GPGGA,114010.00,3816.41136392,N,11652.23368516,E,1,26,0.515,9.120,M,-9.385,M,0.000,0*68
$GPGGA,114011.00,3816.41136658,N,11652.23367545,E,1,26,0.515,9.031,M,-9.385,M,0.000,0*62
$GPGGA,114012.00,3816.41137367,N,11652.23368683,E,1,26,0.515,8.975,M,-9.385,M,0.000,0*67
$GPGGA,114013.00,3816.41139487,N,11652.23367031,E,1,26,0.515,8.904,M,-9.385,M,0.000,0*67
$GPGGA,114014.00,3816.41141263,N,11652.23368936,E,1,26,0.515,8.837,M,-9.385,M,0.000,0*63
$GPGGA,114015.00,3816.41142797,N,11652.23368590,E,1,26,0.515,8.819,M,-9.385,M,0.000,0*63
$GPGGA,114016.00,3816.41143068,N,11652.23368843,E,1,26,0.515,8.850,M,-9.385,M,0.000,0*68
$GPGGA,114017.00,3816.41144221,N,11652.23369071,E,1,26,0.515,8.862,M,-9.385,M,0.000,0*68
$GPGGA,114018.00,3816.41143313,N,11652.23368980,E,1,26,0.515,8.844,M,-9.385,M,0.000,0*62
$GPGGA,114019.00,3816.41145705,N,11652.23372515,E,1,26,0.515,8.797,M,-9.385,M,0.000,0*6C
$GPGGA,114020.00,3816.41147401,N,11652.23374201,E,1,26,0.515,8.806,M,-9.385,M,0.000,0*60
$GPGGA,114021.00,3816.41149509,N,11652.23375164,E,1,26,0.515,8.792,M,-9.385,M,0.000,0*65
$GPGGA,114022.00,3816.41150275,N,11652.23375451,E,1,26,0.515,8.782,M,-9.385,M,0.000,0*60
$GPGGA,114023.00,3816.41151124,N,11652.23373743,E,1,26,0.515,8.732,M,-9.385,M,0.000,0*6A
$GPGGA,114024.00,3816.41150216,N,11652.23373276,E,1,26,0.515,8.685,M,-9.385,M,0.000,0*60
$GPGGA,114025.00,3816.41150826,N,11652.23370806,E,1,26,0.515,8.692,M,-9.385,M,0.000,0*60
$GPGGA,114026.00,3816.41149981,N,11652.23369013,E,1,26,0.515,8.703,M,-9.385,M,0.000,0*6A
$GPGGA,114027.00,3816.41148121,N,11652.23370146,E,1,26,0.515,8.690,M,-9.385,M,0.000,0*6A
$GPGGA,114028.00,3816.41149072,N,11652.23370334,E,1,26,0.515,8.743,M,-9.385,M,0.000,0*6B
$GPGGA,114029.00,3816.41148386,N,11652.23369987,E,1,26,0.515,8.768,M,-9.385,M,0.000,0*60
$GPGGA,114030.00,3816.41149239,N,11652.23371078,E,1,26,0.515,8.769,M,-9.385,M,0.000,0*6D
$GPGGA,114031.00,3816.41150635,N,11652.23370521,E,1,26,0.515,8.742,M,-9.385,M,0.000,0*6D
$GPGGA,114032.00,3816.41151452,N,11652.23369224,E,1,26,0.515,8.751,M,-9.385,M,0.000,0*64
$GPGGA,114033.00,3816.41152088,N,11652.23365296,E,1,26,0.515,8.787,M,-9.385,M,0.000,0*6B
$GPGGA,114034.00,3816.41152242,N,11652.23364992,E,1,26,0.515,8.827,M,-9.385,M,0.000,0*63
$GPGGA,114035.00,3816.41150798,N,11652.23366593,E,1,26,0.515,8.852,M,-9.385,M,0.000,0*6F
$GPGGA,114036.00,3816.41153150,N,11652.23366675,E,1,26,0.515,8.869,M,-9.385,M,0.000,0*6E
$GPGGA,114037.00,3816.41153323,N,11652.23367671,E,1,26,0.515,8.950,M,-9.385,M,0.000,0*67
$GPGGA,114038.00,3816.41151705,N,11652.23368510,E,1,26,0.515,8.946,M,-9.385,M,0.000,0*66
$GPGGA,114039.00,3816.41149636,N,11652.23369269,E,1,26,0.515,8.961,M,-9.385,M,0.000,0*62
$GPGGA,114040.00,3816.41153077,N,11652.23368663,E,1,26,0.515,8.972,M,-9.385,M,0.000,0*69
$GPGGA,114041.00,3816.41151837,N,11652.23371037,E,1,26,0.515,8.982,M,-9.385,M,0.000,0*66
$GPGGA,114042.00,3816.41152232,N,11652.23373175,E,1,26,0.515,8.990,M,-9.385,M,0.000,0*6F
$GPGGA,114043.00,3816.41151353,N,11652.23375580,E,1,26,0.515,8.990,M,-9.385,M,0.000,0*63
$GPGGA,114044.00,3816.41152753,N,11652.23375762,E,1,26,0.515,8.976,M,-9.385,M,0.000,0*65
$GPGGA,114045.00,3816.41150231,N,11652.23377676,E,1,26,0.515,8.940,M,-9.385,M,0.000,0*64
$GPGGA,114046.00,3816.41153068,N,11652.23376325,E,1,26,0.515,8.940,M,-9.385,M,0.000,0*68
$GPGGA,114047.00,3816.41153538,N,11652.23376504,E,1,26,0.515,8.931,M,-9.385,M,0.000,0*6A
$GPGGA,114048.00,3816.41153405,N,11652.23375931,E,1,26,0.515,8.922,M,-9.385,M,0.000,0*61
$GPGGA,114049.00,3816.41153906,N,11652.23374448,E,1,26,0.515,8.919,M,-9.385,M,0.000,0*64
$GPGGA,114050.00,3816.41154203,N,11652.23373867,E,1,26,0.515,8.877,M,-9.385,M,0.000,0*6A
$GPGGA,114051.00,3816.41153536,N,11652.23374218,E,1,26,0.515,8.855,M,-9.385,M,0.000,0*68
$GPGGA,114052.00,3816.41155056,N,11652.23372571,E,1,26,0.515,8.827,M,-9.385,M,0.000,0*65
$GPGGA,114053.00,3816.41155363,N,11652.23371639,E,1,26,0.515,8.814,M,-9.385,M,0.000,0*6D
$GPGGA,114054.00,3816.41153893,N,11652.23370111,E,1,26,0.515,8.757,M,-9.385,M,0.000,0*6C
$GPGGA,114055.00,3816.41153012,N,11652.23371604,E,1,26,0.515,8.753,M,-9.385,M,0.000,0*6A
$GPGGA,114056.00,3816.41153828,N,11652.23370556,E,1,26,0.515,8.754,M,-9.385,M,0.000,0*6A
$GPGGA,114057.00,3816.41154824,N,11652.23369182,E,1,26,0.515,8.791,M,-9.385,M,0.000,0*6C
$GPGGA,114058.00,3816.41153613,N,11652.23366537,E,1,26,0.515,8.798,M,-9.385,M,0.000,0*62
$GPGGA,114059.00,3816.41154329,N,11652.23365189,E,1,26,0.515,8.806,M,-9.385,M,0.000,0*62
$GPGGA,114100.00,3816.41152865,N,11652.23362763,E,1,26,0.515,8.823,M,-9.385,M,0.000,0*68
$GPGGA,114101.00,3816.41152151,N,11652.23361776,E,1,26,0.515,8.824,M,-9.385,M,0.000,0*67
$GPGGA,114102.00,3816.41148471,N,11652.23360078,E,1,26,0.515,8.887,M,-9.385,M,0.000,0*69
$GPGGA,114103.00,3816.41148071,N,11652.23360053,E,1,26,0.515,8.917,M,-9.385,M,0.000,0*6D
$GPGGA,114104.00,3816.41147768,N,11652.23359528,E,1,26,0.515,8.939,M,-9.385,M,0.000,0*65
$GPGGA,114105.00,3816.41147596,N,11652.23358436,E,1,26,0.515,8.942,M,-9.385,M,0.000,0*64
$GPGGA,114106.00,3816.41145585,N,11652.23359207,E,1,26,0.515,8.941,M,-9.385,M,0.000,0*61
$GPGGA,114107.00,3816.41144745,N,11652.23359221,E,1,26,0.515,8.994,M,-9.385,M,0.000,0*63
$GPGGA,114108.00,3816.41145415,N,11652.23359450,E,1,26,0.515,9.014,M,-9.385,M,0.000,0*6B
$GPGGA,114109.00,3816.41143706,N,11652.23360901,E,1,26,0.515,9.062,M,-9.385,M,0.000,0*6F
$GPGGA,114110.00,3816.41144156,N,11652.23361036,E,1,26,0.515,9.095,M,-9.385,M,0.000,0*67
$GPGGA,114111.00,3816.41143382,N,11652.23361819,E,1,26,0.515,9.103,M,-9.385,M,0.000,0*61
$GPGGA,114112.00,3816.41144808,N,11652.23359720,E,1,26,0.515,9.096,M,-9.385,M,0.000,0*6F
$GPGGA,114113.00,3816.41146419,N,11652.23359370,E,1,26,0.515,9.146,M,-9.385,M,0.000,0*6D
$GPGGA,114114.00,3816.41147156,N,11652.23359782,E,1,26,0.515,9.145,M,-9.385,M,0.000,0*6F
$GPGGA,114115.00,3816.41146828,N,11652.23358261,E,1,26,0.515,9.144,M,-9.385,M,0.000,0*67
$GPGGA,114116.00,3816.41146217,N,11652.23356376,E,1,26,0.515,9.123,M,-9.385,M,0.000,0*6A
$GPGGA,114117.00,3816.41145404,N,11652.23355627,E,1,26,0.515,9.093,M,-9.385,M,0.000,0*64
$GPGGA,114118.00,3816.41146329,N,11652.23354712,E,1,26,0.515,9.063,M,-9.385,M,0.000,0*69
$GPGGA,114119.00,3816.41144890,N,11652.23354424,E,1,26,0.515,9.097,M,-9.385,M,0.000,0*6E
$GPGGA,114120.00,3816.41147058,N,11652.23355594,E,1,26,0.515,9.088,M,-9.385,M,0.000,0*6E
$GPGGA,114121.00,3816.41144586,N,11652.23353707,E,1,26,0.515,9.079,M,-9.385,M,0.000,0*6A
$GPGGA,114122.00,3816.41146295,N,11652.23353459,E,1,26,0.515,9.119,M,-9.385,M,0.000,0*61
$GPGGA,114123.00,3816.41147222,N,11652.23352916,E,1,26,0.515,9.193,M,-9.385,M,0.000,0*68
$GPGGA,114124.00,3816.41147122,N,11652.23351891,E,1,26,0.515,9.227,M,-9.385,M,0.000,0*6D
$GPGGA,114125.00,3816.41148083,N,11652.23351822,E,1,26,0.515,9.242,M,-9.385,M,0.000,0*62
$GPGGA,114126.00,3816.41147794,N,11652.23352452,E,1,26,0.515,9.210,M,-9.385,M,0.000,0*60
$GPGGA,114127.00,3816.41146512,N,11652.23355008,E,1,26,0.515,9.228,M,-9.385,M,0.000,0*6B
$GPGGA,114128.00,3816.41144724,N,11652.23356577,E,1,26,0.515,9.292,M,-9.385,M,0.000,0*6E
$GPGGA,114129.00,3816.41142931,N,11652.23357583,E,1,26,0.515,9.284,M,-9.385,M,0.000,0*6E
$GPGGA,114130.00,3816.41142188,N,11652.23359392,E,1,26,0.515,9.307,M,-9.385,M,0.000,0*6E
$GPGGA,114131.00,3816.41140572,N,11652.23360789,E,1,26,0.515,9.318,M,-9.385,M,0.000,0*66
$GPGGA,114132.00,3816.41137872,N,11652.23362489,E,1,26,0.515,9.334,M,-9.385,M,0.000,0*67
$GPGGA,114133.00,3816.41138242,N,11652.23364282,E,1,26,0.515,9.329,M,-9.385,M,0.000,0*67
$GPGGA,114134.00,3816.41137040,N,11652.23366053,E,1,26,0.515,9.364,M,-9.385,M,0.000,0*6A
$GPGGA,114135.00,3816.41139694,N,11652.23366300,E,1,26,0.515,9.434,M,-9.385,M,0.000,0*6D
$GPGGA,114136.00,3816.41138961,N,11652.23365405,E,1,26,0.515,9.441,M,-9.385,M,0.000,0*69
$GPGGA,114137.00,3816.41138950,N,11652.23365027,E,1,26,0.515,9.456,M,-9.385,M,0.000,0*68
$GPGGA,114138.00,3816.41139844,N,11652.23365159,E,1,26,0.515,9.447,M,-9.385,M,0.000,0*6A
$GPGGA,114139.00,3816.41143748,N,11652.23366627,E,1,26,0.515,9.406,M,-9.385,M,0.000,0*6D
$GPGGA,114140.00,3816.41142828,N,11652.23365042,E,1,26,0.515,9.427,M,-9.385,M,0.000,0*6E
$GPGGA,114141.00,3816.41143447,N,11652.23365770,E,1,26,0.515,9.460,M,-9.385,M,0.000,0*6E
$GPGGA,114142.00,3816.41145087,N,11652.23366722,E,1,26,0.515,9.482,M,-9.385,M,0.000,0*6B
$GPGGA,114143.00,3816.41141769,N,11652.23367485,E,1,26,0.515,9.523,M,-9.385,M,0.000,0*6C
$GPGGA,114144.00,3816.41142974,N,11652.23368582,E,1,26,0.515,9.513,M,-9.385,M,0.000,0*60
$GPGGA,114145.00,3816.41140966,N,11652.23368742,E,1,26,0.515,9.514,M,-9.385,M,0.000,0*69
$GPGGA,114146.00,3816.41139872,N,11652.23370641,E,1,26,0.515,9.510,M,-9.385,M,0.000,0*6F
$GPGGA,114147.00,3816.41137650,N,11652.23369574,E,1,26,0.515,9.521,M,-9.385,M,0.000,0*61
$GPGGA,114148.00,3816.41138707,N,11652.23370561,E,1,26,0.515,9.457,M,-9.385,M,0.000,0*6E
$GPGGA,114149.00,3816.41138074,N,11652.23369955,E,1,26,0.515,9.429,M,-9.385,M,0.000,0*66
$GPGGA,114150.00,3816.41138525,N,11652.23371425,E,1,26,0.515,9.388,M,-9.385,M,0.000,0*60
$GPGGA,114151.00,3816.41137345,N,11652.23371219,E,1,26,0.515,9.329,M,-9.385,M,0.000,0*6C
$GPGGA,114152.00,3816.41137665,N,11652.23370160,E,1,26,0.515,9.284,M,-9.385,M,0.000,0*62
$GPGGA,114153.00,3816.41138654,N,11652.23371531,E,1,26,0.515,9.261,M,-9.385,M,0.000,0*64
$GPGGA,114154.00,3816.41140529,N,11652.23372384,E,1,26,0.515,9.265,M,-9.385,M,0.000,0*6A
$GPGGA,114155.00,3816.41141781,N,11652.23372450,E,1,26,0.515,9.248,M,-9.385,M,0.000,0*6B
$GPGGA,114156.00,3816.41140902,N,11652.23374119,E,1,26,0.515,9.179,M,-9.385,M,0.000,0*63
$GPGGA,114157.00,3816.41139887,N,11652.23372804,E,1,26,0.515,9.143,M,-9.385,M,0.000,0*6A
$GPGGA,114158.00,3816.41141165,N,11652.23369985,E,1,26,0.515,9.092,M,-9.385,M,0.000,0*60
$GPGGA,114159.00,3816.41142986,N,11652.23371262,E,1,26,0.515,9.006,M,-9.385,M,0.000,0*61
$GPGGA,114200.00,3816.41144016,N,11652.23371576,E,1,26,0.515,8.961,M,-9.385,M,0.000,0*63
$GPGGA,114201.00,3816.41148330,N,11652.23371099,E,1,26,0.515,8.892,M,-9.385,M,0.000,0*60
$GPGGA,114202.00,3816.41148326,N,11652.23371759,E,1,26,0.515,8.882,M,-9.385,M,0.000,0*6E
$GPGGA,114203.00,3816.41149020,N,11652.23369879,E,1,26,0.515,8.853,M,-9.385,M,0.000,0*63
$GPGGA,114204.00,3816.41149012,N,11652.23369320,E,1,26,0.515,8.785,M,-9.385,M,0.000,0*66
$GPGGA,114205.00,3816.41150673,N,11652.23369024,E,1,26,0.515,8.769,M,-9.385,M,0.000,0*6B
$GPGGA,114206.00,3816.41150330,N,11652.23367266,E,1,26,0.515,8.746,M,-9.385,M,0.000,0*6D
$GPGGA,114207.00,3816.41151616,N,11652.23366357,E,1,26,0.515,8.704,M,-9.385,M,0.000,0*68
$GPGGA,114208.00,3816.41151239,N,11652.23365574,E,1,26,0.515,8.730,M,-9.385,M,0.000,0*6D
$GPGGA,114209.00,3816.41150570,N,11652.23362932,E,1,26,0.515,8.780,M,-9.385,M,0.000,0*65
$GPGGA,114210.00,3816.41151924,N,11652.23361247,E,1,26,0.515,8.770,M,-9.385,M,0.000,0*64
$GPGGA,114211.00,3816.41151551,N,11652.23361469,E,1,26,0.515,8.776,M,-9.385,M,0.000,0*67
$GPGGA,114212.00,3816.41150562,N,11652.23363323,E,1,26,0.515,8.808,M,-9.385,M,0.000,0*68
$GPGGA,114213.00,3816.41151210,N,11652.23364536,E,1,26,0.515,8.834,M,-9.385,M,0.000,0*60
$GPGGA,114214.00,3816.41149407,N,11652.23365561,E,1,26,0.515,8.903,M,-9.385,M,0.000,0*68
$GPGGA,114215.00,3816.41143287,N,11652.23365825,E,1,26,0.515,8.966,M,-9.385,M,0.000,0*63
$GPGGA,114216.00,3816.41143787,N,11652.23364869,E,1,26,0.515,8.996,M,-9.385,M,0.000,0*63
$GPGGA,114217.00,3816.41141278,N,11652.23365685,E,1,26,0.515,9.035,M,-9.385,M,0.000,0*69
$GPGGA,114218.00,3816.41140593,N,11652.23365049,E,1,26,0.515,9.050,M,-9.385,M,0.000,0*60
$GPGGA,114219.00,3816.41140664,N,11652.23366559,E,1,26,0.515,9.083,M,-9.385,M,0.000,0*63
$GPGGA,114220.00,3816.41138687,N,11652.23367071,E,1,26,0.515,9.089,M,-9.385,M,0.000,0*6F
$GPGGA,114221.00,3816.41138598,N,11652.23368420,E,1,26,0.515,9.126,M,-9.385,M,0.000,0*68
$GPGGA,114222.00,3816.41134714,N,11652.23367409,E,1,26,0.515,9.156,M,-9.385,M,0.000,0*62
$GPGGA,114223.00,3816.41131916,N,11652.23367622,E,1,26,0.515,9.172,M,-9.385,M,0.000,0*67
$GPGGA,114224.00,3816.41131932,N,11652.23367093,E,1,26,0.515,9.158,M,-9.385,M,0.000,0*62
$GPGGA,114225.00,3816.41131959,N,11652.23366373,E,1,26,0.515,9.226,M,-9.385,M,0.000,0*68
$GPGGA,114226.00,3816.41132367,N,11652.23364718,E,1,26,0.515,9.275,M,-9.385,M,0.000,0*62
$GPGGA,114227.00,3816.41132958,N,11652.23363562,E,1,26,0.515,9.352,M,-9.385,M,0.000,0*69
$GPGGA,114228.00,3816.41132808,N,11652.23362723,E,1,26,0.515,9.393,M,-9.385,M,0.000,0*69
$GPGGA,114229.00,3816.41130289,N,11652.23363004,E,1,26,0.515,9.382,M,-9.385,M,0.000,0*6A
$GPGGA,114230.00,3816.41128143,N,11652.23361840,E,1,26,0.515,9.377,M,-9.385,M,0.000,0*6E
$GPGGA,114231.00,3816.41122927,N,11652.23363018,E,1,26,0.515,9.401,M,-9.385,M,0.000,0*6E
$GPGGA,114232.00,3816.41125097,N,11652.23361120,E,1,26,0.515,9.433,M,-9.385,M,0.000,0*61
$GPGGA,114233.00,3816.41122810,N,11652.23361578,E,1,26,0.515,9.404,M,-9.385,M,0.000,0*6D
$GPGGA,114234.00,3816.41125431,N,11652.23362305,E,1,26,0.515,9.420,M,-9.385,M,0.000,0*6B
$GPGGA,114235.00,3816.41128974,N,11652.23362726,E,1,26,0.515,9.423,M,-9.385,M,0.000,0*6D
$GPGGA,114236.00,3816.41129132,N,11652.23362946,E,1,26,0.515,9.426,M,-9.385,M,0.000,0*68
$GPGGA,114237.00,3816.41129719,N,11652.23363727,E,1,26,0.515,9.465,M,-9.385,M,0.000,0*69
$GPGGA,114238.00,3816.41131489,N,11652.23364300,E,1,26,0.515,9.443,M,-9.385,M,0.000,0*67
$GPGGA,114239.00,3816.41130740,N,11652.23363680,E,1,26,0.515,9.406,M,-9.385,M,0.000,0*6A
$GPGGA,114240.00,3816.41129540,N,11652.23363770,E,1,26,0.515,9.385,M,-9.385,M,0.000,0*6C
$GPGGA,114241.00,3816.41130475,N,11652.23364691,E,1,26,0.515,9.355,M,-9.385,M,0.000,0*66
$GPGGA,114242.00,3816.41130680,N,11652.23365244,E,1,26,0.515,9.319,M,-9.385,M,0.000,0*68
$GPGGA,114243.00,3816.41132447,N,11652.23367196,E,1,26,0.515,9.345,M,-9.385,M,0.000,0*65
$GPGGA,114244.00,3816.41132359,N,11652.23369382,E,1,26,0.515,9.364,M,-9.385,M,0.000,0*60
$GPGGA,114245.00,3816.41130547,N,11652.23369162,E,1,26,0.515,9.380,M,-9.385,M,0.000,0*6C
$GPGGA,114246.00,3816.41129603,N,11652.23370094,E,1,26,0.515,9.414,M,-9.385,M,0.000,0*6E
$GPGGA,114247.00,3816.41130075,N,11652.23368562,E,1,26,0.515,9.462,M,-9.385,M,0.000,0*64
$GPGGA,114248.00,3816.41129976,N,11652.23369120,E,1,26,0.515,9.521,M,-9.385,M,0.000,0*6C
$GPGGA,114249.00,3816.41133283,N,11652.23369608,E,1,26,0.515,9.542,M,-9.385,M,0.000,0*6F
$GPGGA,114250.00,3816.41137372,N,11652.23369928,E,1,26,0.515,9.518,M,-9.385,M,0.000,0*6E
$GPGGA,114251.00,3816.41136824,N,11652.23372080,E,1,26,0.515,9.508,M,-9.385,M,0.000,0*66
$GPGGA,114252.00,3816.41135559,N,11652.23373584,E,1,26,0.515,9.489,M,-9.385,M,0.000,0*69
$GPGGA,114253.00,3816.41136596,N,11652.23371558,E,1,26,0.515,9.479,M,-9.385,M,0.000,0*64
$GPGGA,114254.00,3816.41133629,N,11652.23369580,E,1,26,0.515,9.483,M,-9.385,M,0.000,0*68
$GPGGA,114255.00,3816.41129442,N,11652.23371640,E,1,26,0.515,9.513,M,-9.385,M,0.000,0*63
$GPGGA,114256.00,3816.41132338,N,11652.23373046,E,1,26,0.515,9.529,M,-9.385,M,0.000,0*6B
$GPGGA,114257.00,3816.41128796,N,11652.23372374,E,1,26,0.515,9.544,M,-9.385,M,0.000,0*69
$GPGGA,114258.00,3816.41124072,N,11652.23372353,E,1,26,0.515,9.563,M,-9.385,M,0.000,0*67
$GPGGA,114259.00,3816.41124857,N,11652.23372124,E,1,26,0.515,9.553,M,-9.385,M,0.000,0*68
$GPGGA,114300.00,3816.41126062,N,11652.23373367,E,1,26,0.515,9.565,M,-9.385,M,0.000,0*68
$GPGGA,114301.00,3816.41126414,N,11652.23371789,E,1,26,0.515,9.523,M,-9.385,M,0.000,0*68
$GPGGA,114302.00,3816.41127264,N,11652.23369475,E,1,26,0.515,9.528,M,-9.385,M,0.000,0*69
$GPGGA,114303.00,3816.41131418,N,11652.23370274,E,1,26,0.515,9.473,M,-9.385,M,0.000,0*62
$GPGGA,114304.00,3816.41131313,N,11652.23372126,E,1,26,0.515,9.438,M,-9.385,M,0.000,0*60
$GPGGA,114305.00,3816.41133957,N,11652.23373375,E,1,26,0.515,9.430,M,-9.385,M,0.000,0*64
$GPGGA,114306.00,3816.41134189,N,11652.23374972,E,1,26,0.515,9.387,M,-9.385,M,0.000,0*6A
$GPGGA,114307.00,3816.41136300,N,11652.23377002,E,1,26,0.515,9.361,M,-9.385,M,0.000,0*6F
$GPGGA,114308.00,3816.41136478,N,11652.23378811,E,1,26,0.515,9.294,M,-9.385,M,0.000,0*66
$GPGGA,114309.00,3816.41136467,N,11652.23380286,E,1,26,0.515,9.210,M,-9.385,M,0.000,0*66
$GPGGA,114310.00,3816.41135961,N,11652.23381551,E,1,26,0.515,9.140,M,-9.385,M,0.000,0*6C
$GPGGA,114311.00,3816.41134052,N,11652.23381463,E,1,26,0.515,9.133,M,-9.385,M,0.000,0*61
$GPGGA,114312.00,3816.41133131,N,11652.23380396,E,1,26,0.515,9.160,M,-9.385,M,0.000,0*6B
$GPGGA,114313.00,3816.41132924,N,11652.23381323,E,1,26,0.515,9.180,M,-9.385,M,0.000,0*66
$GPGGA,114314.00,3816.41131631,N,11652.23383267,E,1,26,0.515,9.185,M,-9.385,M,0.000,0*6F
$GPGGA,114315.00,3816.41129797,N,11652.23385615,E,1,26,0.515,9.189,M,-9.385,M,0.000,0*61
$GPGGA,114316.00,3816.41127010,N,11652.23384697,E,1,26,0.515,9.217,M,-9.385,M,0.000,0*6B
$GPGGA,114317.00,3816.41124748,N,11652.23383830,E,1,26,0.515,9.215,M,-9.385,M,0.000,0*65
$GPGGA,114318.00,3816.41127258,N,11652.23382661,E,1,26,0.515,9.134,M,-9.385,M,0.000,0*66
$GPGGA,114319.00,3816.41129757,N,11652.23384230,E,1,26,0.515,9.089,M,-9.385,M,0.000,0*62
$GPGGA,114320.00,3816.41127182,N,11652.23384484,E,1,26,0.515,9.096,M,-9.385,M,0.000,0*6F
$GPGGA,114321.00,3816.41126424,N,11652.23384503,E,1,26,0.515,9.083,M,-9.385,M,0.000,0*6C
$GPGGA,114322.00,3816.41122294,N,11652.23383769,E,1,26,0.515,9.149,M,-9.385,M,0.000,0*68
$GPGGA,114323.00,3816.41122471,N,11652.23382462,E,1,26,0.515,9.195,M,-9.385,M,0.000,0*6C
$GPGGA,114324.00,3816.41121696,N,11652.23383069,E,1,26,0.515,9.230,M,-9.385,M,0.000,0*61
$GPGGA,114325.00,3816.41121399,N,11652.23381723,E,1,26,0.515,9.258,M,-9.385,M,0.000,0*6F
$GPGGA,114326.00,3816.41121032,N,11652.23380712,E,1,26,0.514,9.276,M,-9.385,M,0.000,0*60
$GPGGA,114327.00,3816.41121885,N,11652.23381585,E,1,26,0.514,9.319,M,-9.385,M,0.000,0*60
$GPGGA,114328.00,3816.41120682,N,11652.23379772,E,1,26,0.514,9.380,M,-9.385,M,0.000,0*6A
$GPGGA,114329.00,3816.41120779,N,11652.23378465,E,1,26,0.514,9.401,M,-9.385,M,0.000,0*64
$GPGGA,114330.00,3816.41120152,N,11652.23379339,E,1,26,0.514,9.401,M,-9.385,M,0.000,0*6C
$GPGGA,114331.00,3816.41119978,N,11652.23378484,E,1,26,0.514,9.402,M,-9.385,M,0.000,0*64
$GPGGA,114332.00,3816.41118407,N,11652.23376543,E,1,26,0.514,9.427,M,-9.385,M,0.000,0*60
$GPGGA,114333.00,3816.41118222,N,11652.23376295,E,1,26,0.514,9.445,M,-9.385,M,0.000,0*68
$GPGGA,114334.00,3816.41119063,N,11652.23375245,E,1,26,0.514,9.487,M,-9.385,M,0.000,0*69
$GPGGA,114335.00,3816.41121276,N,11652.23376352,E,1,26,0.514,9.506,M,-9.385,M,0.000,0*69
$GPGGA,114336.00,3816.41121510,N,11652.23377868,E,1,26,0.514,9.513,M,-9.385,M,0.000,0*6A
$GPGGA,114337.00,3816.41124682,N,11652.23377357,E,1,26,0.514,9.548,M,-9.385,M,0.000,0*6F
$GPGGA,114338.00,3816.41121655,N,11652.23377879,E,1,26,0.514,9.539,M,-9.385,M,0.000,0*6E
$GPGGA,114339.00,3816.41120154,N,11652.23377664,E,1,26,0.514,9.553,M,-9.385,M,0.000,0*66
$GPGGA,114340.00,3816.41118993,N,11652.23377790,E,1,26,0.514,9.559,M,-9.385,M,0.000,0*60
$GPGGA,114341.00,3816.41118954,N,11652.23380199,E,1,26,0.514,9.542,M,-9.385,M,0.000,0*67
$GPGGA,114342.00,3816.41119683,N,11652.23379278,E,1,26,0.514,9.532,M,-9.385,M,0.000,0*6D
$GPGGA,114343.00,3816.41121001,N,11652.23378189,E,1,26,0.514,9.542,M,-9.385,M,0.000,0*60
$GPGGA,114344.00,3816.41121898,N,11652.23377270,E,1,26,0.514,9.561,M,-9.385,M,0.000,0*64
$GPGGA,114345.00,3816.41123613,N,11652.23377226,E,1,26,0.514,9.546,M,-9.385,M,0.000,0*6C
$GPGGA,114346.00,3816.41125297,N,11652.23378307,E,1,26,0.514,9.497,M,-9.385,M,0.000,0*61
$GPGGA,114347.00,3816.41125141,N,11652.23378869,E,1,26,0.514,9.472,M,-9.385,M,0.000,0*60
$GPGGA,114348.00,3816.41125564,N,11652.23378810,E,1,26,0.514,9.421,M,-9.385,M,0.000,0*64
$GPGGA,114349.00,3816.41127242,N,11652.23377237,E,1,26,0.514,9.406,M,-9.385,M,0.000,0*61
$GPGGA,114350.00,3816.41129682,N,11652.23376702,E,1,26,0.514,9.329,M,-9.385,M,0.000,0*67
$GPGGA,114351.00,3816.41130441,N,11652.23376344,E,1,26,0.514,9.322,M,-9.385,M,0.000,0*6E
$GPGGA,114352.00,3816.41131337,N,11652.23374801,E,1,26,0.514,9.272,M,-9.385,M,0.000,0*66
$GPGGA,114353.00,3816.41132087,N,11652.23373030,E,1,26,0.514,9.245,M,-9.385,M,0.000,0*65
$GPGGA,114354.00,3816.41135769,N,11652.23371970,E,1,26,0.514,9.245,M,-9.385,M,0.000,0*6D
$GPGGA,114355.00,3816.41133147,N,11652.23370550,E,1,26,0.514,9.187,M,-9.385,M,0.000,0*62
$GPGGA,114356.00,3816.41135043,N,11652.23369830,E,1,26,0.514,9.146,M,-9.385,M,0.000,0*6C
$GPGGA,114357.00,3816.41135824,N,11652.23371391,E,1,26,0.514,9.100,M,-9.385,M,0.000,0*6F
$GPGGA,114358.00,3816.41136739,N,11652.23373420,E,1,26,0.514,9.069,M,-9.385,M,0.000,0*61
$GPGGA,114359.00,3816.41133277,N,11652.23373487,E,1,26,0.514,9.056,M,-9.385,M,0.000,0*6B
$GPGGA,114400.00,3816.41134554,N,11652.23374894,E,1,26,0.514,8.933,M,-9.385,M,0.000,0*63
$GPGGA,114401.00,3816.41136689,N,11652.23376307,E,1,26,0.514,8.880,M,-9.385,M,0.000,0*69
$GPGGA,114402.00,3816.41138654,N,11652.23377775,E,1,26,0.514,8.803,M,-9.385,M,0.000,0*6F
$GPGGA,114403.00,3816.41140766,N,11652.23379648,E,1,26,0.514,8.797,M,-9.385,M,0.000,0*62
$GPGGA,114404.00,3816.41142250,N,11652.23379548,E,1,26,0.514,8.755,M,-9.385,M,0.000,0*6A
$GPGGA,114405.00,3816.41141074,N,11652.23381224,E,1,26,0.514,8.710,M,-9.385,M,0.000,0*67
$GPGGA,114406.00,3816.41139324,N,11652.23382207,E,1,26,0.514,8.687,M,-9.385,M,0.000,0*60
$GPGGA,114407.00,3816.41141410,N,11652.23383462,E,1,26,0.514,8.640,M,-9.385,M,0.000,0*61
$GPGGA,114408.00,3816.41139584,N,11652.23384423,E,1,26,0.514,8.658,M,-9.385,M,0.000,0*66
$GPGGA,114409.00,3816.41140578,N,11652.23384128,E,1,26,0.514,8.697,M,-9.385,M,0.000,0*67
$GPGGA,114410.00,3816.41143922,N,11652.23381881,E,1,26,0.514,8.706,M,-9.385,M,0.000,0*69
$GPGGA,114411.00,3816.41139050,N,11652.23378538,E,1,26,0.514,8.731,M,-9.385,M,0.000,0*64
$GPGGA,114412.00,3816.41141774,N,11652.23379202,E,1,26,0.514,8.717,M,-9.385,M,0.000,0*62
$GPGGA,114413.00,3816.41141383,N,11652.23378429,E,1,26,0.514,8.721,M,-9.385,M,0.000,0*64
$GPGGA,114414.00,3816.41140202,N,11652.23378787,E,1,26,0.514,8.735,M,-9.385,M,0.000,0*68
$GPGGA,114415.00,3816.41142718,N,11652.23378305,E,1,26,0.514,8.726,M,-9.385,M,0.000,0*69
$GPGGA,114416.00,3816.41144201,N,11652.23379389,E,1,26,0.514,8.787,M,-9.385,M,0.000,0*6F
$GPGGA,114417.00,3816.41144423,N,11652.23379583,E,1,26,0.514,8.762,M,-9.385,M,0.000,0*6F
$GPGGA,114418.00,3816.41143901,N,11652.23379408,E,1,26,0.514,8.753,M,-9.385,M,0.000,0*6A
$GPGGA,114419.00,3816.41144310,N,11652.23379438,E,1,26,0.514,8.717,M,-9.385,M,0.000,0*65
$GPGGA,114420.00,3816.41145957,N,11652.23378689,E,1,26,0.514,8.646,M,-9.385,M,0.000,0*6B
$GPGGA,114421.00,3816.41147597,N,11652.23379019,E,1,26,0.514,8.629,M,-9.385,M,0.000,0*6F
$GPGGA,114422.00,3816.41151506,N,11652.23377806,E,1,26,0.514,8.604,M,-9.385,M,0.000,0*64
$GPGGA,114423.00,3816.41151717,N,11652.23376999,E,1,26,0.514,8.626,M,-9.385,M,0.000,0*61
$GPGGA,114424.00,3816.41150320,N,11652.23375740,E,1,26,0.514,8.635,M,-9.385,M,0.000,0*6C
$GPGGA,114425.00,3816.41153251,N,11652.23374008,E,1,26,0.514,8.621,M,-9.385,M,0.000,0*66
$GPGGA,114426.00,3816.41155102,N,11652.23372521,E,1,26,0.514,8.605,M,-9.385,M,0.000,0*68
$GPGGA,114427.00,3816.41155294,N,11652.23371621,E,1,26,0.514,8.575,M,-9.385,M,0.000,0*61
$GPGGA,114428.00,3816.41154943,N,11652.23371024,E,1,26,0.514,8.525,M,-9.385,M,0.000,0*68
$GPGGA,114429.00,3816.41156315,N,11652.23371886,E,1,26,0.514,8.520,M,-9.385,M,0.000,0*67
$GPGGA,114430.00,3816.41151680,N,11652.23372871,E,1,26,0.514,8.528,M,-9.385,M,0.000,0*62
$GPGGA,114431.00,3816.41155695,N,11652.23374496,E,1,26,0.514,8.540,M,-9.385,M,0.000,0*6E
$GPGGA,114432.00,3816.41154265,N,11652.23373604,E,1,26,0.514,8.488,M,-9.385,M,0.000,0*6C
$GPGGA,114433.00,3816.41153847,N,11652.23373932,E,1,26,0.514,8.496,M,-9.385,M,0.000,0*65
$GPGGA,114434.00,3816.41154641,N,11652.23374074,E,1,26,0.514,8.495,M,-9.385,M,0.000,0*62
$GPGGA,114435.00,3816.41155002,N,11652.23372742,E,1,26,0.514,8.521,M,-9.385,M,0.000,0*69
$GPGGA,114436.00,3816.41157196,N,11652.23373325,E,1,26,0.514,8.542,M,-9.385,M,0.000,0*65
$GPGGA,114437.00,3816.41157126,N,11652.23374920,E,1,26,0.514,8.630,M,-9.385,M,0.000,0*61
$GPGGA,114438.00,3816.41155936,N,11652.23375981,E,1,26,0.514,8.679,M,-9.385,M,0.000,0*62
$GPGGA,114439.00,3816.41154929,N,11652.23376603,E,1,26,0.514,8.710,M,-9.385,M,0.000,0*64
$GPGGA,114440.00,3816.41155081,N,11652.23374619,E,1,26,0.514,8.736,M,-9.385,M,0.000,0*6D
$GPGGA,114441.00,3816.41156531,N,11652.23374199,E,1,26,0.514,8.741,M,-9.385,M,0.000,0*6E
$GPGGA,114442.00,3816.41155356,N,11652.23373876,E,1,26,0.514,8.779,M,-9.385,M,0.000,0*6D
$GPGGA,114443.00,3816.41152622,N,11652.23373512,E,1,26,0.514,8.794,M,-9.385,M,0.000,0*61
$GPGGA,114444.00,3816.41152552,N,11652.23373754,E,1,26,0.514,8.802,M,-9.385,M,0.000,0*62
$GPGGA,114445.00,3816.41153280,N,11652.23373357,E,1,26,0.514,8.834,M,-9.385,M,0.000,0*68
$GPGGA,114446.00,3816.41154365,N,11652.23371348,E,1,26,0.514,8.821,M,-9.385,M,0.000,0*6E
$GPGGA,114447.00,3816.41151599,N,11652.23368693,E,1,26,0.514,8.830,M,-9.385,M,0.000,0*64
$GPGGA,114448.00,3816.41150676,N,11652.23368656,E,1,26,0.514,8.840,M,-9.385,M,0.000,0*66
$GPGGA,114449.00,3816.41150100,N,11652.23366660,E,1,26,0.514,8.866,M,-9.385,M,0.000,0*6E
$GPGGA,114450.00,3816.41148115,N,11652.23366374,E,1,26,0.514,8.827,M,-9.385,M,0.000,0*6E
$GPGGA,114451.00,3816.41152206,N,11652.23364515,E,1,26,0.514,8.840,M,-9.385,M,0.000,0*67
$GPGGA,114452.00,3816.41150646,N,11652.23365763,E,1,26,0.514,8.869,M,-9.385,M,0.000,0*6F
$GPGGA,114453.00,3816.41150343,N,11652.23365621,E,1,26,0.514,8.908,M,-9.385,M,0.000,0*6F
$GPGGA,114454.00,3816.41144320,N,11652.23366645,E,1,26,0.514,8.926,M,-9.385,M,0.000,0*65
$GPGGA,114455.00,3816.41147731,N,11652.23366890,E,1,26,0.514,8.880,M,-9.385,M,0.000,0*68
$GPGGA,114456.00,3816.41146483,N,11652.23365409,E,1,26,0.514,8.892,M,-9.385,M,0.000,0*6C
$GPGGA,114457.00,3816.41148280,N,11652.23365565,E,1,26,0.514,8.919,M,-9.385,M,0.000,0*6F
$GPGGA,114458.00,3816.41147746,N,11652.23365974,E,1,26,0.514,8.914,M,-9.385,M,0.000,0*61
$GPGGA,114459.00,3816.41147611,N,11652.23365824,E,1,26,0.514,8.874,M,-9.385,M,0.000,0*60
$GPGGA,114500.00,3816.41150372,N,11652.23366030,E,1,26,0.514,8.904,M,-9.385,M,0.000,0*63
$GPGGA,114501.00,3816.41149310,N,11652.23365630,E,1,26,0.514,8.890,M,-9.385,M,0.000,0*67
$GPGGA,114502.00,3816.41149276,N,11652.23366448,E,1,26,0.514,8.913,M,-9.385,M,0.000,0*61
$GPGGA,114503.00,3816.41150536,N,11652.23364560,E,1,26,0.514,8.913,M,-9.385,M,0.000,0*62
$GPGGA,114504.00,3816.41152776,N,11652.23360466,E,1,26,0.514,8.891,M,-9.385,M,0.000,0*69
$GPGGA,114505.00,3816.41155794,N,11652.23361146,E,1,26,0.514,8.843,M,-9.385,M,0.000,0*6A
$GPGGA,114506.00,3816.41156773,N,11652.23359281,E,1,26,0.514,8.832,M,-9.385,M,0.000,0*66
$GPGGA,114507.00,3816.41158796,N,11652.23359373,E,1,26,0.514,8.813,M,-9.385,M,0.000,0*6D
$GPGGA,114508.00,3816.41157454,N,11652.23358682,E,1,26,0.514,8.801,M,-9.385,M,0.000,0*69
$GPGGA,114509.00,3816.41159237,N,11652.23357583,E,1,26,0.514,8.801,M,-9.385,M,0.000,0*68
$GPGGA,114510.00,3816.41158894,N,11652.23357778,E,1,26,0.514,8.853,M,-9.385,M,0.000,0*63
$GPGGA,114511.00,3816.41158476,N,11652.23354516,E,1,26,0.514,8.843,M,-9.385,M,0.000,0*6A
$GPGGA,114512.00,3816.41157335,N,11652.23355513,E,1,26,0.514,8.810,M,-9.385,M,0.000,0*64
$GPGGA,114513.00,3816.41157320,N,11652.23355410,E,1,26,0.514,8.788,M,-9.385,M,0.000,0*6D
$GPGGA,114514.00,3816.41161372,N,11652.23354510,E,1,26,0.514,8.743,M,-9.385,M,0.000,0*6F
$GPGGA,114515.00,3816.41161815,N,11652.23354041,E,1,26,0.514,8.732,M,-9.385,M,0.000,0*63
$GPGGA,114516.00,3816.41162369,N,11652.23353257,E,1,26,0.514,8.734,M,-9.385,M,0.000,0*67
$GPGGA,114517.00,3816.41161298,N,11652.23353224,E,1,26,0.514,8.706,M,-9.385,M,0.000,0*6F
$GPGGA,114518.00,3816.41167632,N,11652.23353710,E,1,26,0.514,8.731,M,-9.385,M,0.000,0*64
$GPGGA,114519.00,3816.41168238,N,11652.23358081,E,1,26,0.514,8.833,M,-9.385,M,0.000,0*6D
$GPGGA,114520.00,3816.41164946,N,11652.23360754,E,1,26,0.514,8.882,M,-9.385,M,0.000,0*67
$GPGGA,114521.00,3816.41164031,N,11652.23360985,E,1,26,0.514,8.893,M,-9.385,M,0.000,0*6D
$GPGGA,114522.00,3816.41165243,N,11652.23361759,E,1,26,0.514,8.940,M,-9.385,M,0.000,0*69
$GPGGA,114523.00,3816.41164895,N,11652.23363283,E,1,26,0.514,9.010,M,-9.385,M,0.000,0*65
$GPGGA,114524.00,3816.41163295,N,11652.23363184,E,1,26,0.514,9.079,M,-9.385,M,0.000,0*64
$GPGGA,114525.00,3816.41160246,N,11652.23363925,E,1,26,0.514,9.144,M,-9.385,M,0.000,0*64
$GPGGA,114526.00,3816.41157957,N,11652.23363601,E,1,26,0.514,9.138,M,-9.385,M,0.000,0*6A
$GPGGA,114527.00,3816.41158792,N,11652.23361426,E,1,26,0.514,9.097,M,-9.385,M,0.000,0*62
$GPGGA,114528.00,3816.41159314,N,11652.23361780,E,1,26,0.514,9.100,M,-9.385,M,0.000,0*66
$GPGGA,114529.00,3816.41159654,N,11652.23362782,E,1,26,0.514,9.131,M,-9.385,M,0.000,0*65
$GPGGA,114530.00,3816.41158317,N,11652.23361880,E,1,26,0.514,9.122,M,-9.385,M,0.000,0*62
$GPGGA,114531.00,3816.41158714,N,11652.23363211,E,1,26,0.514,9.130,M,-9.385,M,0.000,0*67
$GPGGA,114532.00,3816.41158301,N,11652.23361852,E,1,26,0.514,9.153,M,-9.385,M,0.000,0*6E
$GPGGA,114533.00,3816.41158787,N,11652.23361556,E,1,26,0.514,9.126,M,-9.385,M,0.000,0*6E
$GPGGA,114534.00,3816.41158709,N,11652.23360461,E,1,26,0.514,9.123,M,-9.385,M,0.000,0*6E
$GPGGA,114535.00,3816.41158453,N,11652.23360850,E,1,26,0.514,9.111,M,-9.385,M,0.000,0*6C
$GPGGA,114536.00,3816.41163539,N,11652.23360189,E,1,26,0.514,9.092,M,-9.385,M,0.000,0*6D
$GPGGA,114537.00,3816.41162772,N,11652.23360443,E,1,26,0.514,9.048,M,-9.385,M,0.000,0*64
$GPGGA,114538.00,3816.41175614,N,11652.23358538,E,1,25,0.528,9.076,M,-9.385,M,0.000,0*6B
$GPGGA,114539.00,3816.41174795,N,11652.23358929,E,1,25,0.528,9.055,M,-9.385,M,0.000,0*6E
$GPGGA,114540.00,3816.41174548,N,11652.23360398,E,1,25,0.528,9.046,M,-9.385,M,0.000,0*6B
$GPGGA,114541.00,3816.41174175,N,11652.23362865,E,1,25,0.528,9.014,M,-9.385,M,0.000,0*6C
$GPGGA,114542.00,3816.41174475,N,11652.23364091,E,1,25,0.528,8.994,M,-9.385,M,0.000,0*6F
$GPGGA,114543.00,3816.41172389,N,11652.23365656,E,1,25,0.528,8.968,M,-9.385,M,0.000,0*63
$GPGGA,114544.00,3816.41170598,N,11652.23367351,E,1,25,0.528,8.996,M,-9.385,M,0.000,0*61
$GPGGA,114545.00,3816.41169544,N,11652.23370588,E,1,25,0.528,9.008,M,-9.385,M,0.000,0*62
$GPGGA,114546.00,3816.41167591,N,11652.23368707,E,1,25,0.528,8.983,M,-9.385,M,0.000,0*60
$GPGGA,114547.00,3816.41167356,N,11652.23369757,E,1,25,0.528,8.980,M,-9.385,M,0.000,0*6B
$GPGGA,114548.00,3816.41164951,N,11652.23369745,E,1,25,0.528,8.982,M,-9.385,M,0.000,0*6B
$GPGGA,114549.00,3816.41163346,N,11652.23370492,E,1,25,0.528,9.000,M,-9.385,M,0.000,0*62
$GPGGA,114550.00,3816.41165596,N,11652.23370682,E,1,25,0.528,9.023,M,-9.385,M,0.000,0*65
$GPGGA,114551.00,3816.41164079,N,11652.23371575,E,1,25,0.528,9.028,M,-9.385,M,0.000,0*60
$GPGGA,114552.00,3816.41161421,N,11652.23371425,E,1,25,0.528,9.059,M,-9.385,M,0.000,0*6D
$GPGGA,114553.00,3816.41162982,N,11652.23371957,E,1,25,0.528,9.074,M,-9.385,M,0.000,0*6C
$GPGGA,114554.00,3816.41154981,N,11652.23372712,E,1,25,0.528,9.081,M,-9.385,M,0.000,0*6B
$GPGGA,114555.00,3816.41150174,N,11652.23371139,E,1,25,0.528,9.083,M,-9.385,M,0.000,0*62
$GPGGA,114556.00,3816.41151846,N,11652.23372081,E,1,25,0.528,9.125,M,-9.385,M,0.000,0*64
$GPGGA,114557.00,3816.41154065,N,11652.23370047,E,1,25,0.528,9.144,M,-9.385,M,0.000,0*66
$GPGGA,114558.00,3816.41152931,N,11652.23369330,E,1,25,0.528,9.176,M,-9.385,M,0.000,0*6D
$GPGGA,114559.00,3816.41153273,N,11652.23366787,E,1,25,0.528,9.185,M,-9.385,M,0.000,0*6B
$GPGGA,114600.00,3816.41151876,N,11652.23363898,E,1,25,0.528,9.209,M,-9.385,M,0.000,0*6A
$GPGGA,114601.00,3816.41151474,N,11652.23360969,E,1,25,0.528,9.195,M,-9.385,M,0.000,0*6F
$GPGGA,114602.00,3816.41152864,N,11652.23360803,E,1,25,0.528,9.215,M,-9.385,M,0.000,0*64
$GPGGA,114603.00,3816.41152470,N,11652.23359786,E,1,25,0.528,9.210,M,-9.385,M,0.000,0*61
$GPGGA,114604.00,3816.41151087,N,11652.23359054,E,1,25,0.528,9.179,M,-9.385,M,0.000,0*6D
$GPGGA,114605.00,3816.41147527,N,11652.23361018,E,1,25,0.528,9.233,M,-9.385,M,0.000,0*6A
$GPGGA,114606.00,3816.41148533,N,11652.23361604,E,1,25,0.528,9.245,M,-9.385,M,0.000,0*69
$GPGGA,114607.00,3816.41146883,N,11652.23360183,E,1,25,0.528,9.266,M,-9.385,M,0.000,0*68
$GPGGA,114608.00,3816.41147231,N,11652.23363668,E,1,25,0.528,9.243,M,-9.385,M,0.000,0*63
$GPGGA,114609.00,3816.41148160,N,11652.23364580,E,1,25,0.528,9.256,M,-9.385,M,0.000,0*6C
$GPGGA,114610.00,3816.41148461,N,11652.23367265,E,1,25,0.528,9.291,M,-9.385,M,0.000,0*64
$GPGGA,114611.00,3816.41141642,N,11652.23367751,E,1,25,0.528,9.315,M,-9.385,M,0.000,0*60
$GPGGA,114612.00,3816.41140975,N,11652.23366922,E,1,25,0.528,9.327,M,-9.385,M,0.000,0*63
$GPGGA,114613.00,3816.41137406,N,11652.23367851,E,1,25,0.528,9.299,M,-9.385,M,0.000,0*6B
$GPGGA,114614.00,3816.41137402,N,11652.23368191,E,1,25,0.528,9.284,M,-9.385,M,0.000,0*6E
$GPGGA,114615.00,3816.41137943,N,11652.23369750,E,1,25,0.528,9.267,M,-9.385,M,0.000,0*60
$GPGGA,114616.00,3816.41137743,N,11652.23371256,E,1,25,0.528,9.275,M,-9.385,M,0.000,0*64
$GPGGA,114617.00,3816.41139949,N,11652.23371149,E,1,25,0.528,9.263,M,-9.385,M,0.000,0*65
$GPGGA,114618.00,3816.41146093,N,11652.23371337,E,1,25,0.528,9.237,M,-9.385,M,0.000,0*66
$GPGGA,114619.00,3816.41147218,N,11652.23367939,E,1,25,0.528,9.219,M,-9.385,M,0.000,0*68
$GPGGA,114620.00,3816.41150907,N,11652.23366374,E,1,25,0.528,9.154,M,-9.385,M,0.000,0*69
$GPGGA,114621.00,3816.41150044,N,11652.23364989,E,1,25,0.528,9.154,M,-9.385,M,0.000,0*6C
$GPGGA,114622.00,3816.41152898,N,11652.23365439,E,1,25,0.528,9.035,M,-9.385,M,0.000,0*65
$GPGGA,114623.00,3816.41152356,N,11652.23366220,E,1,25,0.528,8.955,M,-9.385,M,0.000,0*6E
$GPGGA,114624.00,3816.41154250,N,11652.23365234,E,1,25,0.528,8.896,M,-9.385,M,0.000,0*60
$GPGGA,114625.00,3816.41152630,N,11652.23366612,E,1,25,0.528,8.893,M,-9.385,M,0.000,0*63
$GPGGA,114626.00,3816.41155903,N,11652.23366746,E,1,25,0.528,8.878,M,-9.385,M,0.000,0*6D
$GPGGA,114627.00,3816.41157581,N,11652.23368179,E,1,25,0.528,8.864,M,-9.385,M,0.000,0*61
$GPGGA,114628.00,3816.41158945,N,11652.23370488,E,1,25,0.528,8.866,M,-9.385,M,0.000,0*65
$GPGGA,114629.00,3816.41162429,N,11652.23373025,E,1,25,0.528,8.824,M,-9.385,M,0.000,0*6C
$GPGGA,114630.00,3816.41161933,N,11652.23373877,E,1,25,0.528,8.768,M,-9.385,M,0.000,0*69
$GPGGA,114631.00,3816.41162586,N,11652.23376432,E,1,25,0.528,8.756,M,-9.385,M,0.000,0*6C
$GPGGA,114632.00,3816.41166316,N,11652.23378380,E,1,25,0.528,8.718,M,-9.385,M,0.000,0*6E
$GPGGA,114633.00,3816.41167391,N,11652.23380925,E,1,25,0.528,8.702,M,-9.385,M,0.000,0*68
$GPGGA,114634.00,3816.41167261,N,11652.23382089,E,1,25,0.528,8.683,M,-9.385,M,0.000,0*64
$GPGGA,114635.00,3816.41166644,N,11652.23382300,E,1,25,0.527,8.700,M,-9.385,M,0.000,0*60
$GPGGA,114636.00,3816.41165490,N,11652.23382538,E,1,25,0.527,8.679,M,-9.385,M,0.000,0*69
$GPGGA,114637.00,3816.41163787,N,11652.23383686,E,1,25,0.527,8.700,M,-9.385,M,0.000,0*63
$GPGGA,114638.00,3816.41161905,N,11652.23384167,E,1,25,0.527,8.750,M,-9.385,M,0.000,0*60
$GPGGA,114639.00,3816.41164489,N,11652.23385514,E,1,25,0.527,8.742,M,-9.385,M,0.000,0*6F
$GPGGA,114640.00,3816.41166932,N,11652.23385709,E,1,25,0.527,8.685,M,-9.385,M,0.000,0*6A
$GPGGA,114641.00,3816.41168819,N,11652.23381695,E,1,25,0.527,8.682,M,-9.385,M,0.000,0*6A
$GPGGA,114642.00,3816.41168647,N,11652.23380913,E,1,25,0.527,8.657,M,-9.385,M,0.000,0*64
$GPGGA,114643.00,3816.41170580,N,11652.23380479,E,1,25,0.527,8.626,M,-9.385,M,0.000,0*63
$GPGGA,114644.00,3816.41172648,N,11652.23379569,E,1,25,0.527,8.628,M,-9.385,M,0.000,0*69
$GPGGA,114645.00,3816.41175239,N,11652.23377504,E,1,25,0.527,8.662,M,-9.385,M,0.000,0*66
$GPGGA,114646.00,3816.41174764,N,11652.23377255,E,1,25,0.527,8.665,M,-9.385,M,0.000,0*6D
$GPGGA,114647.00,3816.41173076,N,11652.23378287,E,1,25,0.527,8.689,M,-9.385,M,0.000,0*6D
$GPGGA,114648.00,3816.41175875,N,11652.23376385,E,1,25,0.527,8.700,M,-9.385,M,0.000,0*62
$GPGGA,114649.00,3816.41178408,N,11652.23377614,E,1,25,0.527,8.691,M,-9.385,M,0.000,0*6D
$GPGGA,114650.00,3816.41179426,N,11652.23377601,E,1,25,0.527,8.632,M,-9.385,M,0.000,0*65
$GPGGA,114651.00,3816.41180581,N,11652.23378626,E,1,25,0.527,8.608,M,-9.385,M,0.000,0*6D
$GPGGA,114652.00,3816.41180481,N,11652.23379799,E,1,25,0.527,8.566,M,-9.385,M,0.000,0*60
$GPGGA,114653.00,3816.41180887,N,11652.23380509,E,1,25,0.527,8.503,M,-9.385,M,0.000,0*65
$GPGGA,114654.00,3816.41180594,N,11652.23380997,E,1,25,0.527,8.462,M,-9.385,M,0.000,0*60
$GPGGA,114655.00,3816.41180950,N,11652.23381738,E,1,25,0.527,8.454,M,-9.385,M,0.000,0*6A
$GPGGA,114656.00,3816.41182222,N,11652.23383521,E,1,25,0.527,8.399,M,-9.385,M,0.000,0*6B
$GPGGA,114657.00,3816.41183524,N,11652.23385726,E,1,25,0.527,8.387,M,-9.385,M,0.000,0*66
$GPGGA,114658.00,3816.41184170,N,11652.23387129,E,1,25,0.527,8.365,M,-9.385,M,0.000,0*6C
$GPGGA,114659.00,3816.41183717,N,11652.23389509,E,1,25,0.527,8.323,M,-9.385,M,0.000,0*67
$GPGGA,114700.00,3816.41181897,N,11652.23391334,E,1,25,0.527,8.311,M,-9.385,M,0.000,0*6F
$GPGGA,114701.00,3816.41182678,N,11652.23390113,E,1,26,0.512,8.318,M,-9.385,M,0.000,0*68
$GPGGA,114702.00,3816.41182250,N,11652.23390369,E,1,26,0.512,8.342,M,-9.385,M,0.000,0*65
$GPGGA,114703.00,3816.41179884,N,11652.23390119,E,1,26,0.512,8.334,M,-9.385,M,0.000,0*67
$GPGGA,114704.00,3816.41182383,N,11652.23390503,E,1,26,0.512,8.287,M,-9.385,M,0.000,0*6E
$GPGGA,114705.00,3816.41182064,N,11652.23388164,E,1,26,0.512,8.216,M,-9.385,M,0.000,0*61
$GPGGA,114706.00,3816.41180680,N,11652.23385908,E,1,26,0.512,8.218,M,-9.385,M,0.000,0*6D
$GPGGA,114707.00,3816.41180757,N,11652.23384513,E,1,26,0.512,8.216,M,-9.385,M,0.000,0*6E
$GPGGA,114708.00,3816.41180884,N,11652.23381956,E,1,26,0.512,8.206,M,-9.385,M,0.000,0*69
$GPGGA,114709.00,3816.41179649,N,11652.23379176,E,1,26,0.512,8.156,M,-9.385,M,0.000,0*6A
$GPGGA,114710.00,3816.41180811,N,11652.23378705,E,1,26,0.512,8.192,M,-9.385,M,0.000,0*6C
$GPGGA,114711.00,3816.41179624,N,11652.23375361,E,1,26,0.512,8.153,M,-9.385,M,0.000,0*65
$GPGGA,114712.00,3816.41181420,N,11652.23376572,E,1,26,0.512,8.138,M,-9.385,M,0.000,0*6D
$GPGGA,114713.00,3816.41183777,N,11652.23373798,E,1,26,0.512,8.066,M,-9.385,M,0.000,0*66
$GPGGA,114714.00,3816.41187994,N,11652.23373651,E,1,26,0.512,8.044,M,-9.385,M,0.000,0*62
$GPGGA,114715.00,3816.41187036,N,11652.23371539,E,1,26,0.512,8.016,M,-9.385,M,0.000,0*6A
$GPGGA,114716.00,3816.41188797,N,11652.23371194,E,1,26,0.512,7.987,M,-9.385,M,0.000,0*67
$GPGGA,114717.00,3816.41190891,N,11652.23373273,E,1,26,0.512,7.990,M,-9.385,M,0.000,0*68
$GPGGA,114718.00,3816.41191878,N,11652.23372273,E,1,26,0.512,7.943,M,-9.385,M,0.000,0*6E
$GPGGA,114719.00,3816.41190984,N,11652.23371665,E,1,26,0.512,7.944,M,-9.385,M,0.000,0*6B
$GPGGA,114720.00,3816.41189332,N,11652.23372068,E,1,26,0.512,7.976,M,-9.385,M,0.000,0*67
$GPGGA,114721.00,3816.41187198,N,11652.23372384,E,1,26,0.512,8.040,M,-9.385,M,0.000,0*68
$GPGGA,114722.00,3816.41186330,N,11652.23374089,E,1,26,0.512,8.092,M,-9.385,M,0.000,0*6D
$GPGGA,114723.00,3816.41185674,N,11652.23374538,E,1,26,0.512,8.136,M,-9.385,M,0.000,0*6A
$GPGGA,114724.00,3816.41187941,N,11652.23375169,E,1,26,0.512,8.192,M,-9.385,M,0.000,0*69
$GPGGA,114725.00,3816.41186066,N,11652.23376779,E,1,26,0.512,8.252,M,-9.385,M,0.000,0*6E
$GPGGA,114726.00,3816.41185727,N,11652.23377771,E,1,26,0.512,8.315,M,-9.385,M,0.000,0*67
$GPGGA,114727.00,3816.41181631,N,11652.23373511,E,1,26,0.512,8.329,M,-9.385,M,0.000,0*6B
$GPGGA,114728.00,3816.41183272,N,11652.23372960,E,1,26,0.512,8.357,M,-9.385,M,0.000,0*67
$GPGGA,114729.00,3816.41183145,N,11652.23373231,E,1,26,0.512,8.382,M,-9.385,M,0.000,0*67
$GPGGA,114730.00,3816.41185056,N,11652.23372465,E,1,26,0.512,8.378,M,-9.385,M,0.000,0*69
$GPGGA,114731.00,3816.41185357,N,11652.23373113,E,1,26,0.512,8.359,M,-9.385,M,0.000,0*6C
$GPGGA,114732.00,3816.41183438,N,11652.23371883,E,1,26,0.512,8.373,M,-9.385,M,0.000,0*6D
$GPGGA,114733.00,3816.41181789,N,11652.23369598,E,1,26,0.512,8.354,M,-9.385,M,0.000,0*6C
$GPGGA,114734.00,3816.41178902,N,11652.23368068,E,1,26,0.512,8.369,M,-9.385,M,0.000,0*65
$GPGGA,114735.00,3816.41177723,N,11652.23365184,E,1,26,0.512,8.371,M,-9.385,M,0.000,0*61
$GPGGA,114736.00,3816.41178841,N,11652.23365733,E,1,26,0.512,8.413,M,-9.385,M,0.000,0*6F
$GPGGA,114737.00,3816.41182031,N,11652.23364795,E,1,26,0.512,8.415,M,-9.385,M,0.000,0*6F
$GPGGA,114738.00,3816.41180307,N,11652.23364351,E,1,26,0.512,8.410,M,-9.385,M,0.000,0*6D
$GPGGA,114739.00,3816.41177852,N,11652.23365855,E,1,26,0.512,8.419,M,-9.385,M,0.000,0*68
$GPGGA,114740.00,3816.41178969,N,11652.23366152,E,1,26,0.512,8.409,M,-9.385,M,0.000,0*6C
$GPGGA,114741.00,3816.41178422,N,11652.23366335,E,1,26,0.512,8.384,M,-9.385,M,0.000,0*6E
$GPGGA,114742.00,3816.41181248,N,11652.23365985,E,1,26,0.512,8.342,M,-9.385,M,0.000,0*69
$GPGGA,114743.00,3816.41180551,N,11652.23365840,E,1,26,0.512,8.333,M,-9.385,M,0.000,0*68
$GPGGA,114744.00,3816.41178242,N,11652.23365319,E,1,26,0.512,8.363,M,-9.385,M,0.000,0*6F
$GPGGA,114745.00,3816.41177950,N,11652.23367162,E,1,26,0.512,8.329,M,-9.385,M,0.000,0*6B
$GPGGA,114746.00,3816.41180976,N,11652.23364225,E,1,26,0.512,8.278,M,-9.385,M,0.000,0*62
$GPGGA,114747.00,3816.41180991,N,11652.23365892,E,1,26,0.512,8.239,M,-9.385,M,0.000,0*68
$GPGGA,114748.00,3816.41178848,N,11652.23365872,E,1,26,0.512,8.278,M,-9.385,M,0.000,0*6E
$GPGGA,114749.00,3816.41179753,N,11652.23367422,E,1,26,0.512,8.266,M,-9.385,M,0.000,0*6F
$GPGGA,114750.00,3816.41180639,N,11652.23368501,E,1,26,0.512,8.240,M,-9.385,M,0.000,0*67
$GPGGA,114751.00,3816.41179842,N,11652.23368311,E,1,26,0.512,8.260,M,-9.385,M,0.000,0*67
$GPGGA,114752.00,3816.41177779,N,11652.23367678,E,1,26,0.512,8.284,M,-9.385,M,0.000,0*62
$GPGGA,114753.00,3816.41174962,N,11652.23365716,E,1,26,0.512,8.301,M,-9.385,M,0.000,0*63
$GPGGA,114754.00,3816.41175256,N,11652.23365281,E,1,26,0.512,8.315,M,-9.385,M,0.000,0*67
$GPGGA,114755.00,3816.41176587,N,11652.23365212,E,1,26,0.512,8.342,M,-9.385,M,0.000,0*66
$GPGGA,114756.00,3816.41176482,N,11652.23365743,E,1,26,0.512,8.332,M,-9.385,M,0.000,0*67
$GPGGA,114757.00,3816.41180414,N,11652.23362714,E,1,26,0.512,8.327,M,-9.385,M,0.000,0*61
$GPGGA,114758.00,3816.41179716,N,11652.23359797,E,1,26,0.512,8.295,M,-9.385,M,0.000,0*62
$GPGGA,114759.00,3816.41177720,N,11652.23359271,E,1,26,0.512,8.249,M,-9.385,M,0.000,0*64
$GPGGA,114800.00,3816.41177427,N,11652.23358224,E,1,26,0.512,8.259,M,-9.385,M,0.000,0*63
$GPGGA,114801.00,3816.41177651,N,11652.23358030,E,1,26,0.512,8.287,M,-9.385,M,0.000,0*65
$GPGGA,114802.00,3816.41174687,N,11652.23357832,E,1,26,0.512,8.285,M,-9.385,M,0.000,0*69
$GPGGA,114803.00,3816.41174845,N,11652.23360132,E,1,26,0.512,8.310,M,-9.385,M,0.000,0*68
$GPGGA,114804.00,3816.41174436,N,11652.23359110,E,1,26,0.512,8.400,M,-9.385,M,0.000,0*6B
$GPGGA,114805.00,3816.41170494,N,11652.23362036,E,1,26,0.512,8.449,M,-9.385,M,0.000,0*66
$GPGGA,114806.00,3816.41170158,N,11652.23364163,E,1,26,0.512,8.477,M,-9.385,M,0.000,0*6A
$GPGGA,114807.00,3816.41170003,N,11652.23365851,E,1,26,0.512,8.507,M,-9.385,M,0.000,0*6B
$GPGGA,114808.00,3816.41165439,N,11652.23365702,E,1,26,0.512,8.548,M,-9.385,M,0.000,0*6F
$GPGGA,114809.00,3816.41164817,N,11652.23365563,E,1,26,0.512,8.570,M,-9.385,M,0.000,0*61
$GPGGA,114810.00,3816.41166346,N,11652.23363893,E,1,26,0.512,8.612,M,-9.385,M,0.000,0*67
$GPGGA,114811.00,3816.41164522,N,11652.23365173,E,1,26,0.512,8.661,M,-9.385,M,0.000,0*65
$GPGGA,114812.00,3816.41161546,N,11652.23366307,E,1,26,0.512,8.705,M,-9.385,M,0.000,0*60
$GPGGA,114813.00,3816.41162090,N,11652.23365697,E,1,26,0.512,8.762,M,-9.385,M,0.000,0*62
$GPGGA,114814.00,3816.41166634,N,11652.23366777,E,1,26,0.512,8.769,M,-9.385,M,0.000,0*6E
$GPGGA,114815.00,3816.41164825,N,11652.23365782,E,1,26,0.512,8.761,M,-9.385,M,0.000,0*62
$GPGGA,114816.00,3816.41164767,N,11652.23365285,E,1,26,0.512,8.780,M,-9.385,M,0.000,0*65
$GPGGA,114817.00,3816.41162895,N,11652.23365103,E,1,26,0.512,8.779,M,-9.385,M,0.000,0*6B
$GPGGA,114818.00,3816.41161066,N,11652.23368334,E,1,26,0.512,8.842,M,-9.385,M,0.000,0*6F
$GPGGA,114819.00,3816.41159596,N,11652.23369325,E,1,26,0.512,8.901,M,-9.385,M,0.000,0*68
$GPGGA,114820.00,3816.41162530,N,11652.23370914,E,1,26,0.512,8.942,M,-9.385,M,0.000,0*61
$GPGGA,114821.00,3816.41160308,N,11652.23369960,E,1,26,0.512,8.956,M,-9.385,M,0.000,0*61
$GPGGA,114822.00,3816.41158656,N,11652.23370068,E,1,26,0.512,8.934,M,-9.385,M,0.000,0*6A
$GPGGA,114823.00,3816.41156038,N,11652.23368847,E,1,26,0.512,8.916,M,-9.385,M,0.000,0*67
$GPGGA,114824.00,3816.41155543,N,11652.23370096,E,1,26,0.512,8.876,M,-9.385,M,0.000,0*60
